[
  {
    "_subst": true,
    "name": "StripePayments",
    "type": "payment",
    "priority": 100,
    "driverClass": "bubble.cloud.payment.stripe.StripePaymentDriver",
    "driverConfig": {
      "publicApiKey": "{{STRIPE_PUBLIC_API_KEY}}"
    },
    "credentials": {
      "params": [ {"name": "secretApiKey", "value": "{{STRIPE_SECRET_API_KEY}}"} ]
    },
    "template": true
  },

  {
    "name": "MaxMind",
    "type": "geoLocation",
    "driverClass": "bubble.cloud.geoLocation.maxmind.MaxMindDriver",
    "driverConfig": {
      "url": "https://geolite.maxmind.com/download/geoip/database/GeoLite2-City.tar.gz",
      "file": "GeoLite2-City_[\\d]+/GeoLite2-City\\.mmdb"
    },
    "template": true
  },

  {
    "_subst": true,
    "name": "VultrCompute",
    "type": "compute",
    "driverClass": "bubble.cloud.compute.vultr.VultrDriver",
    "driverConfig": {
      "regions": [{
        "name": "Vultr - New Jersey",
        "internalName": "New Jersey",
        "location": {"city": "Newark", "country": "US", "region": "NJ", "lat": "40.72", "lon": "-74.17"}
      }, {
        "name": "Vultr - Atlanta",
        "internalName": "Atlanta",
        "location": {"city": "Atlanta", "country": "US", "region": "GA", "lat": "33.755", "lon": "-84.39"}
      }, {
        "name": "Vultr - Chicago",
        "internalName": "Chicago",
        "location": {"city": "Chicago", "country": "US", "region": "IL", "lat": "41.881944", "lon": "-87.627778"}
      }, {
        "name": "Vultr - San Jose",
        "internalName": "Silicon Valley",
        "location": {"city": "San Jose", "country": "US", "region": "CA", "lat": "37.333333", "lon": "-121.9"}
      }, {
        "name": "Vultr - London",
        "internalName": "London",
        "location": {"city": "London", "country": "GB", "region": "London", "lat": "51.507222", "lon": "-0.1275"}
      }, {
        "name": "Vultr - Paris",
        "internalName": "Paris",
        "location": {"city": "Paris", "country": "FR", "region": "Ile-de-Paris", "lat": "48.8567", "lon": "2.3508"}
      }],
      "sizes": [
        {"name": "small", "type": "small", "internalName": "1024 MB RAM,25 GB SSD,1.00 TB BW"},
        {"name": "medium", "type": "medium", "internalName": "4096 MB RAM,80 GB SSD,3.00 TB BW"},
        {"name": "large", "type": "large", "internalName": "8192 MB RAM,160 GB SSD,4.00 TB BW"}
      ],
      "config": [{"name": "os", "value": "Ubuntu 18.04 x64"}]
    },
    "credentials": {
      "params": [
        {"name": "API-Key", "value": "{{VULTR_API_KEY}}"}
      ]
    },
    "template": true
  }
]